{"results":[{"name":{"title":"ms","first":"alexandra","last":"kretschmann"},"location":{"street":"fasanenweg 104","city":"lauchheim","state":"niedersachsen","postcode":52840,"coordinates":{"latitude":"-39.0176","longitude":"139.7563"},"timezone":{"offset":"+5:45","description":"Kathmandu"}},"email":"alexandra.kretschmann@example.com","phone":"0826-6803044","cell":"0172-3632075","id":{"name":"","value":null},"picture":{"large":"https://randomuser.me/api/portraits/women/20.jpg","medium":"https://randomuser.me/api/portraits/med/women/20.jpg","thumbnail":"https://randomuser.me/api/portraits/thumb/women/20.jpg"}},{"name":{"title":"miss","first":"susana","last":"best"},"location":{"street":"goethestraße 99","city":"metzingen","state":"schleswig-holstein","postcode":25992,"coordinates":{"latitude":"-74.1170","longitude":"-1.5274"},"timezone":{"offset":"+8:00","description":"Beijing, Perth, Singapore, Hong Kong"}},"email":"susana.best@example.com","phone":"0648-7085979","cell":"0176-3117564","id":{"name":"","value":null},"picture":{"large":"https://randomuser.me/api/portraits/women/59.jpg","medium":"https://randomuser.me/api/portraits/med/women/59.jpg","thumbnail":"https://randomuser.me/api/portraits/thumb/women/59.jpg"}},{"name":{"title":"mrs","first":"josefina","last":"vidal"},"location":{"street":"5929 calle de téllez","city":"mérida","state":"cantabria","postcode":44352,"coordinates":{"latitude":"19.6496","longitude":"-165.5328"},"timezone":{"offset":"+1:00","description":"Brussels, Copenhagen, Madrid, Paris"}},"email":"josefina.vidal@example.com","phone":"931-058-502","cell":"681-811-707","id":{"name":"DNI","value":"90164373-Q"},"picture":{"large":"https://randomuser.me/api/portraits/women/68.jpg","medium":"https://randomuser.me/api/portraits/med/women/68.jpg","thumbnail":"https://randomuser.me/api/portraits/thumb/women/68.jpg"}},{"name":{"title":"ms","first":"cinira","last":"vieira"},"location":{"street":"3154 rua rui barbosa ","city":"magé","state":"espírito santo","postcode":55576,"coordinates":{"latitude":"-44.3342","longitude":"-42.5882"},"timezone":{"offset":"-9:00","description":"Alaska"}},"email":"cinira.vieira@example.com","phone":"(53) 9437-7846","cell":"(05) 7994-2703","id":{"name":"","value":null},"picture":{"large":"https://randomuser.me/api/portraits/women/38.jpg","medium":"https://randomuser.me/api/portraits/med/women/38.jpg","thumbnail":"https://randomuser.me/api/portraits/thumb/women/38.jpg"}},{"name":{"title":"miss","first":"naomi","last":"duncan"},"location":{"street":"4841 hickory creek dr","city":"queanbeyan","state":"western australia","postcode":4806,"coordinates":{"latitude":"89.2616","longitude":"-169.0159"},"timezone":{"offset":"+6:00","description":"Almaty, Dhaka, Colombo"}},"email":"naomi.duncan@example.com","phone":"08-8476-8775","cell":"0453-665-942","id":{"name":"TFN","value":"931735464"},"picture":{"large":"https://randomuser.me/api/portraits/women/27.jpg","medium":"https://randomuser.me/api/portraits/med/women/27.jpg","thumbnail":"https://randomuser.me/api/portraits/thumb/women/27.jpg"}},{"name":{"title":"miss","first":"violet","last":"ward"},"location":{"street":"3139 saddle dr","city":"tacoma","state":"delaware","postcode":29773,"coordinates":{"latitude":"-87.1974","longitude":"-38.8921"},"timezone":{"offset":"0:00","description":"Western Europe Time, London, Lisbon, Casablanca"}},"email":"violet.ward@example.com","phone":"(820)-939-9545","cell":"(602)-691-3596","id":{"name":"SSN","value":"121-35-9470"},"picture":{"large":"https://randomuser.me/api/portraits/women/35.jpg","medium":"https://randomuser.me/api/portraits/med/women/35.jpg","thumbnail":"https://randomuser.me/api/portraits/thumb/women/35.jpg"}},{"name":{"title":"mr","first":"william","last":"gill"},"location":{"street":"5342 concession road 23","city":"cartwright","state":"saskatchewan","postcode":"F7W 2C4","coordinates":{"latitude":"63.2350","longitude":"-25.0558"},"timezone":{"offset":"+4:30","description":"Kabul"}},"email":"william.gill@example.com","phone":"031-917-4905","cell":"476-593-1801","id":{"name":"","value":null},"picture":{"large":"https://randomuser.me/api/portraits/men/20.jpg","medium":"https://randomuser.me/api/portraits/med/men/20.jpg","thumbnail":"https://randomuser.me/api/portraits/thumb/men/20.jpg"}},{"name":{"title":"miss","first":"lily","last":"miller"},"location":{"street":"1571 marsh ln","city":"devonport","state":"victoria","postcode":9549,"coordinates":{"latitude":"-30.3832","longitude":"-137.3784"},"timezone":{"offset":"-11:00","description":"Midway Island, Samoa"}},"email":"lily.miller@example.com","phone":"01-0879-9276","cell":"0414-759-872","id":{"name":"TFN","value":"246249564"},"picture":{"large":"https://randomuser.me/api/portraits/women/26.jpg","medium":"https://randomuser.me/api/portraits/med/women/26.jpg","thumbnail":"https://randomuser.me/api/portraits/thumb/women/26.jpg"}},{"name":{"title":"mrs","first":"dana","last":"morris"},"location":{"street":"5554 e north st","city":"arlington","state":"wyoming","postcode":86586,"coordinates":{"latitude":"-38.1641","longitude":"115.7612"},"timezone":{"offset":"-6:00","description":"Central Time (US & Canada), Mexico City"}},"email":"dana.morris@example.com","phone":"(605)-624-1838","cell":"(382)-627-0573","id":{"name":"SSN","value":"740-96-5810"},"picture":{"large":"https://randomuser.me/api/portraits/women/78.jpg","medium":"https://randomuser.me/api/portraits/med/women/78.jpg","thumbnail":"https://randomuser.me/api/portraits/thumb/women/78.jpg"}},{"name":{"title":"madame","first":"micheline","last":"fernandez"},"location":{"street":"5956 rue de la barre","city":"menzingen","state":"schaffhausen","postcode":6455,"coordinates":{"latitude":"-74.4239","longitude":"161.5311"},"timezone":{"offset":"0:00","description":"Western Europe Time, London, Lisbon, Casablanca"}},"email":"micheline.fernandez@example.com","phone":"(157)-442-8529","cell":"(637)-636-1319","id":{"name":"AVS","value":"756.4373.2467.02"},"picture":{"large":"https://randomuser.me/api/portraits/women/65.jpg","medium":"https://randomuser.me/api/portraits/med/women/65.jpg","thumbnail":"https://randomuser.me/api/portraits/thumb/women/65.jpg"}},{"name":{"title":"mr","first":"ludovico","last":"campos"},"location":{"street":"6055 rua bela vista ","city":"várzea grande","state":"são paulo","postcode":62974,"coordinates":{"latitude":"10.2637","longitude":"-4.2127"},"timezone":{"offset":"+1:00","description":"Brussels, Copenhagen, Madrid, Paris"}},"email":"ludovico.campos@example.com","phone":"(39) 3368-0672","cell":"(15) 3707-5860","id":{"name":"","value":null},"picture":{"large":"https://randomuser.me/api/portraits/men/62.jpg","medium":"https://randomuser.me/api/portraits/med/men/62.jpg","thumbnail":"https://randomuser.me/api/portraits/thumb/men/62.jpg"}},{"name":{"title":"mr","first":"reinhold","last":"stumpe"},"location":{"street":"parkstraße 75","city":"fröndenberg/ruhr","state":"bremen","postcode":32684,"coordinates":{"latitude":"49.8638","longitude":"-43.8825"},"timezone":{"offset":"+10:00","description":"Eastern Australia, Guam, Vladivostok"}},"email":"reinhold.stumpe@example.com","phone":"0746-3187322","cell":"0172-7180107","id":{"name":"","value":null},"picture":{"large":"https://randomuser.me/api/portraits/men/63.jpg","medium":"https://randomuser.me/api/portraits/med/men/63.jpg","thumbnail":"https://randomuser.me/api/portraits/thumb/men/63.jpg"}},{"name":{"title":"mr","first":"fabien","last":"lecomte"},"location":{"street":"6467 place du 8 novembre 1942","city":"poitiers","state":"moselle","postcode":27695,"coordinates":{"latitude":"0.2600","longitude":"69.8547"},"timezone":{"offset":"-8:00","description":"Pacific Time (US & Canada)"}},"email":"fabien.lecomte@example.com","phone":"05-49-55-20-08","cell":"06-29-23-89-85","id":{"name":"INSEE","value":"1NNaN39640013 16"},"picture":{"large":"https://randomuser.me/api/portraits/men/71.jpg","medium":"https://randomuser.me/api/portraits/med/men/71.jpg","thumbnail":"https://randomuser.me/api/portraits/thumb/men/71.jpg"}},{"name":{"title":"mr","first":"wade","last":"stevens"},"location":{"street":"4392 kingsway","city":"stoke-on-trent","state":"highlands and islands","postcode":"T3 1NE","coordinates":{"latitude":"2.9233","longitude":"36.4260"},"timezone":{"offset":"0:00","description":"Western Europe Time, London, Lisbon, Casablanca"}},"email":"wade.stevens@example.com","phone":"019467 35587","cell":"0798-319-897","id":{"name":"NINO","value":"AB 51 74 33 R"},"picture":{"large":"https://randomuser.me/api/portraits/men/37.jpg","medium":"https://randomuser.me/api/portraits/med/men/37.jpg","thumbnail":"https://randomuser.me/api/portraits/thumb/men/37.jpg"}},{"name":{"title":"miss","first":"rosie","last":"baker"},"location":{"street":"4448 park avenue","city":"edinburgh","state":"durham","postcode":"R48 2FN","coordinates":{"latitude":"17.2066","longitude":"46.1341"},"timezone":{"offset":"+6:00","description":"Almaty, Dhaka, Colombo"}},"email":"rosie.baker@example.com","phone":"01997 09950","cell":"0732-459-916","id":{"name":"NINO","value":"TL 24 59 39 H"},"picture":{"large":"https://randomuser.me/api/portraits/women/92.jpg","medium":"https://randomuser.me/api/portraits/med/women/92.jpg","thumbnail":"https://randomuser.me/api/portraits/thumb/women/92.jpg"}},{"name":{"title":"miss","first":"luciana","last":"pepels"},"location":{"street":"1909 van limburg stirumstraat","city":"woensdrecht","state":"zuid-holland","postcode":62733,"coordinates":{"latitude":"-23.4721","longitude":"72.5300"},"timezone":{"offset":"+10:00","description":"Eastern Australia, Guam, Vladivostok"}},"email":"luciana.pepels@example.com","phone":"(133)-191-2912","cell":"(476)-723-6702","id":{"name":"BSN","value":"99310878"},"picture":{"large":"https://randomuser.me/api/portraits/women/1.jpg","medium":"https://randomuser.me/api/portraits/med/women/1.jpg","thumbnail":"https://randomuser.me/api/portraits/thumb/women/1.jpg"}},{"name":{"title":"mrs","first":"heather","last":"mendoza"},"location":{"street":"2979 novara avenue","city":"kinsealy-drinan","state":"sligo","postcode":17044,"coordinates":{"latitude":"-25.6086","longitude":"30.9061"},"timezone":{"offset":"+7:00","description":"Bangkok, Hanoi, Jakarta"}},"email":"heather.mendoza@example.com","phone":"011-080-2880","cell":"081-119-0453","id":{"name":"PPS","value":"5954089T"},"picture":{"large":"https://randomuser.me/api/portraits/women/18.jpg","medium":"https://randomuser.me/api/portraits/med/women/18.jpg","thumbnail":"https://randomuser.me/api/portraits/thumb/women/18.jpg"}},{"name":{"title":"mr","first":"billy","last":"wells"},"location":{"street":"370 westheimer rd","city":"mildura","state":"south australia","postcode":4512,"coordinates":{"latitude":"54.3571","longitude":"136.7286"},"timezone":{"offset":"+9:00","description":"Tokyo, Seoul, Osaka, Sapporo, Yakutsk"}},"email":"billy.wells@example.com","phone":"09-0393-4035","cell":"0400-725-713","id":{"name":"TFN","value":"432273273"},"picture":{"large":"https://randomuser.me/api/portraits/men/51.jpg","medium":"https://randomuser.me/api/portraits/med/men/51.jpg","thumbnail":"https://randomuser.me/api/portraits/thumb/men/51.jpg"}},{"name":{"title":"mr","first":"guillermo","last":"reyes"},"location":{"street":"900 calle covadonga","city":"toledo","state":"cantabria","postcode":69632,"coordinates":{"latitude":"-43.5165","longitude":"98.1329"},"timezone":{"offset":"-4:00","description":"Atlantic Time (Canada), Caracas, La Paz"}},"email":"guillermo.reyes@example.com","phone":"920-957-065","cell":"689-587-500","id":{"name":"DNI","value":"64123435-P"},"picture":{"large":"https://randomuser.me/api/portraits/men/90.jpg","medium":"https://randomuser.me/api/portraits/med/men/90.jpg","thumbnail":"https://randomuser.me/api/portraits/thumb/men/90.jpg"}},{"name":{"title":"mrs","first":"touria","last":"stokhof"},"location":{"street":"7203 leidseweg","city":"heerlen","state":"groningen","postcode":57391,"coordinates":{"latitude":"38.3767","longitude":"130.9200"},"timezone":{"offset":"+5:00","description":"Ekaterinburg, Islamabad, Karachi, Tashkent"}},"email":"touria.stokhof@example.com","phone":"(473)-733-4997","cell":"(163)-368-7010","id":{"name":"BSN","value":"28902426"},"picture":{"large":"https://randomuser.me/api/portraits/women/82.jpg","medium":"https://randomuser.me/api/portraits/med/women/82.jpg","thumbnail":"https://randomuser.me/api/portraits/thumb/women/82.jpg"}},{"name":{"title":"miss","first":"melissa","last":"moreno"},"location":{"street":"4968 grove road","city":"gloucester","state":"cornwall","postcode":"QM2O 2PE","coordinates":{"latitude":"-10.9390","longitude":"-56.3299"},"timezone":{"offset":"+4:00","description":"Abu Dhabi, Muscat, Baku, Tbilisi"}},"email":"melissa.moreno@example.com","phone":"017684 89958","cell":"0734-212-343","id":{"name":"NINO","value":"ES 47 61 71 S"},"picture":{"large":"https://randomuser.me/api/portraits/women/30.jpg","medium":"https://randomuser.me/api/portraits/med/women/30.jpg","thumbnail":"https://randomuser.me/api/portraits/thumb/women/30.jpg"}},{"name":{"title":"mr","first":"sebastian","last":"sinn"},"location":{"street":"rosenweg 79","city":"bad gandersheim","state":"bremen","postcode":39808,"coordinates":{"latitude":"-22.8384","longitude":"110.4359"},"timezone":{"offset":"-1:00","description":"Azores, Cape Verde Islands"}},"email":"sebastian.sinn@example.com","phone":"0363-7113394","cell":"0173-2464712","id":{"name":"","value":null},"picture":{"large":"https://randomuser.me/api/portraits/men/31.jpg","medium":"https://randomuser.me/api/portraits/med/men/31.jpg","thumbnail":"https://randomuser.me/api/portraits/thumb/men/31.jpg"}},{"name":{"title":"mr","first":"mads","last":"sørensen"},"location":{"street":"1295 valdemarsgade","city":"hirtsals","state":"danmark","postcode":43063,"coordinates":{"latitude":"36.5392","longitude":"156.3539"},"timezone":{"offset":"-8:00","description":"Pacific Time (US & Canada)"}},"email":"mads.sørensen@example.com","phone":"85906067","cell":"56320937","id":{"name":"CPR","value":"010213-5171"},"picture":{"large":"https://randomuser.me/api/portraits/men/28.jpg","medium":"https://randomuser.me/api/portraits/med/men/28.jpg","thumbnail":"https://randomuser.me/api/portraits/thumb/men/28.jpg"}},{"name":{"title":"mrs","first":"hélèna","last":"berger"},"location":{"street":"2800 boulevard de la duchère","city":"boulogne-billancourt","state":"isère","postcode":82945,"coordinates":{"latitude":"52.0205","longitude":"-157.1068"},"timezone":{"offset":"-5:00","description":"Eastern Time (US & Canada), Bogota, Lima"}},"email":"hélèna.berger@example.com","phone":"02-16-73-23-61","cell":"06-41-91-44-51","id":{"name":"INSEE","value":"2NNaN45366277 14"},"picture":{"large":"https://randomuser.me/api/portraits/women/18.jpg","medium":"https://randomuser.me/api/portraits/med/women/18.jpg","thumbnail":"https://randomuser.me/api/portraits/thumb/women/18.jpg"}},{"name":{"title":"mr","first":"soan","last":"dupont"},"location":{"street":"2011 place du 8 février 1962","city":"aix-en-provence","state":"meuse","postcode":26586,"coordinates":{"latitude":"-20.2707","longitude":"-142.2700"},"timezone":{"offset":"+10:00","description":"Eastern Australia, Guam, Vladivostok"}},"email":"soan.dupont@example.com","phone":"05-81-61-16-72","cell":"06-17-78-40-21","id":{"name":"INSEE","value":"1NNaN63012776 62"},"picture":{"large":"https://randomuser.me/api/portraits/men/85.jpg","medium":"https://randomuser.me/api/portraits/med/men/85.jpg","thumbnail":"https://randomuser.me/api/portraits/thumb/men/85.jpg"}},{"name":{"title":"mr","first":"benjamin","last":"johansen"},"location":{"street":"6073 gøgevej","city":"allinge","state":"syddanmark","postcode":79119,"coordinates":{"latitude":"-67.4073","longitude":"148.6866"},"timezone":{"offset":"-11:00","description":"Midway Island, Samoa"}},"email":"benjamin.johansen@example.com","phone":"56560391","cell":"18351138","id":{"name":"CPR","value":"865747-6091"},"picture":{"large":"https://randomuser.me/api/portraits/men/55.jpg","medium":"https://randomuser.me/api/portraits/med/men/55.jpg","thumbnail":"https://randomuser.me/api/portraits/thumb/men/55.jpg"}},{"name":{"title":"mr","first":"sky","last":"flipse"},"location":{"street":"2662 zonstraat","city":"montfoort","state":"utrecht","postcode":18455,"coordinates":{"latitude":"87.9542","longitude":"-119.8861"},"timezone":{"offset":"-1:00","description":"Azores, Cape Verde Islands"}},"email":"sky.flipse@example.com","phone":"(115)-114-3261","cell":"(146)-076-3125","id":{"name":"BSN","value":"44939555"},"picture":{"large":"https://randomuser.me/api/portraits/men/61.jpg","medium":"https://randomuser.me/api/portraits/med/men/61.jpg","thumbnail":"https://randomuser.me/api/portraits/thumb/men/61.jpg"}},{"name":{"title":"mr","first":"barac","last":"da rosa"},"location":{"street":"3051 rua santos dumont ","city":"serra","state":"paraná","postcode":34756,"coordinates":{"latitude":"41.2913","longitude":"-29.7536"},"timezone":{"offset":"-2:00","description":"Mid-Atlantic"}},"email":"barac.darosa@example.com","phone":"(42) 7085-6662","cell":"(73) 4989-5243","id":{"name":"","value":null},"picture":{"large":"https://randomuser.me/api/portraits/men/93.jpg","medium":"https://randomuser.me/api/portraits/med/men/93.jpg","thumbnail":"https://randomuser.me/api/portraits/thumb/men/93.jpg"}},{"name":{"title":"ms","first":"marilyn","last":"gonzalez"},"location":{"street":"5433 daisy dr","city":"adelaide","state":"queensland","postcode":4576,"coordinates":{"latitude":"62.0404","longitude":"-148.3057"},"timezone":{"offset":"0:00","description":"Western Europe Time, London, Lisbon, Casablanca"}},"email":"marilyn.gonzalez@example.com","phone":"00-7783-2434","cell":"0420-452-218","id":{"name":"TFN","value":"140170255"},"picture":{"large":"https://randomuser.me/api/portraits/women/32.jpg","medium":"https://randomuser.me/api/portraits/med/women/32.jpg","thumbnail":"https://randomuser.me/api/portraits/thumb/women/32.jpg"}},{"name":{"title":"miss","first":"brittany","last":"myers"},"location":{"street":"2862 springfield road","city":"clonakilty","state":"leitrim","postcode":76438,"coordinates":{"latitude":"62.2625","longitude":"161.4243"},"timezone":{"offset":"-3:00","description":"Brazil, Buenos Aires, Georgetown"}},"email":"brittany.myers@example.com","phone":"061-761-2673","cell":"081-264-8301","id":{"name":"PPS","value":"6236275T"},"picture":{"large":"https://randomuser.me/api/portraits/women/39.jpg","medium":"https://randomuser.me/api/portraits/med/women/39.jpg","thumbnail":"https://randomuser.me/api/portraits/thumb/women/39.jpg"}}],"info":{"seed":"72f83e55b2080072","results":30,"page":1,"version":"1.2"}}